{"html_attributions": [], "results": [{"formatted_address": "201 W Redd Rd, El Paso, TX 79932, United States", "geometry": {"location": {"lat": 31.8603351, "lng": -106.5901093}, "viewport": {"northeast": {"lat": 31.86182892989272, "lng": -106.5885149701073}, "southwest": {"lat": 31.85912927010728, "lng": -106.5912146298927}}}, "icon": "https://maps.gstatic.com/mapfiles/place_api/icons/school-71.png", "id": "0dc82db8418f1eb7180c0aa9d92e2501de9a881c", "name": "El Paso Academy West", "opening_hours": {"open_now": false}, "photos": [{"height": 3024, "html_attributions": ["<a href=\"https://maps.google.com/maps/contrib/109788948440977305602\">Ol wil</a>"], "photo_reference": "CmRaAAAAE7UehCAzq2EotfXd9fGQnFnkrqtUlfscKaixqtFlFMSdvDflAeFH6fFpz5TG7T5vH-EBCevU04otVZLbZ6rTMywR-yXAI-Q3PYcXPtHyOCV0SIvBlrI7rYwwfGUcZ1KHEhCxBRHHNpdxIhjhjsLUABjXGhTKcBH0U20aF2diTFzfJkPAlkJuOw", "width": 4032}], "place_id": "ChIJd0yjCBn53YYRTUPOpgwHsNY", "plus_code": {"compound_code": "VC65+4X El Paso, Texas", "global_code": "853MVC65+4X"}, "rating": 4.8, "reference": "ChIJd0yjCBn53YYRTUPOpgwHsNY", "types": ["school", "point_of_interest", "establishment"], "user_ratings_total": 5}, {"formatted_address": "11000 Argal Ct, El Paso, TX 79935, United States", "geometry": {"location": {"lat": 31.7515518, "lng": -106.3290094}, "viewport": {"northeast": {"lat": 31.75300447989272, "lng": -106.3275807701073}, "southwest": {"lat": 31.75030482010728, "lng": -106.3302804298927}}}, "icon": "https://maps.gstatic.com/mapfiles/place_api/icons/school-71.png", "id": "72a69fd892fc3be55449e02577d1e1db86260fb1", "name": "El Paso Academy East", "opening_hours": {"open_now": false}, "photos": [{"height": 545, "html_attributions": ["<a href=\"https://maps.google.com/maps/contrib/106294723109306919626\">A Google User</a>"], "photo_reference": "CmRaAAAAew9u930vQFF3EIDtJ3jryoX_CHFgMCcURJbNfFDauNZZr-YYtXEh2cK8Fc2GZdMJX2fSw8aW4_RCPovzy_gCDoMJ19FYC0i-5TF7pZ82KUHEUGN6_4uw2lWIphqOnOruEhD0K3WQQNfpDujoPbzEIkrrGhRZhXwHLOjjDOZI_DWDsHfxvHEZpg", "width": 1248}], "place_id": "ChIJ27QEfqRE54YRuSH-GbNDi3k", "plus_code": {"compound_code": "QM2C+J9 El Paso, Texas", "global_code": "853MQM2C+J9"}, "rating": 3.5, "reference": "ChIJ27QEfqRE54YRuSH-GbNDi3k", "types": ["school", "secondary_school", "point_of_interest", "establishment"], "user_ratings_total": 6}, {"formatted_address": "201 S Americas Ave, El Paso, TX 79907, United States", "geometry": {"location": {"lat": 31.6808598, "lng": -106.3167733}, "viewport": {"northeast": {"lat": 31.68200467989272, "lng": -106.3153124201073}, "southwest": {"lat": 31.67930502010728, "lng": -106.3180120798927}}}, "icon": "https://maps.gstatic.com/mapfiles/place_api/icons/shopping-71.png", "id": "37d53dfbb800ea57f4c218ddd08e9bdfae455f85", "name": "Academy Sports + Outdoors", "opening_hours": {"open_now": true}, "photos": [{"height": 1836, "html_attributions": ["<a href=\"https://maps.google.com/maps/contrib/101851012158843030307\">Stephanie Madrid</a>"], "photo_reference": "CmRaAAAAaU9BVDIOMzG9WhHXP1vlIqJdT0eApJ8pWvcUQMaQPyucaf5CoLb4VagMIBq7k4ImD1l-HqwUZNHGx-xqo9LjTDmCYH3TOSVjVZH2WKGx63oMVWGzvjONHYhJVd5fZQa2EhCCmKthl68UD0i0v2TMalhKGhSK7QmXZgc2xBwEYJ1vsurpgKCvBQ", "width": 3264}], "place_id": "ChIJ72cw7exC54YR65UNcvXfntA", "plus_code": {"compound_code": "MMJM+87 El Paso, Texas", "global_code": "853MMMJM+87"}, "rating": 4.4, "reference": "ChIJ72cw7exC54YR65UNcvXfntA", "types": ["shoe_store", "point_of_interest", "clothing_store", "store", "establishment"], "user_ratings_total": 2793}, {"formatted_address": "801 S Mesa Hills Dr, El Paso, TX 79912, United States", "geometry": {"location": {"lat": 31.8177789, "lng": -106.5401262}, "viewport": {"northeast": {"lat": 31.81901737989272, "lng": -106.5390250201073}, "southwest": {"lat": 31.81631772010728, "lng": -106.5417246798927}}}, "icon": "https://maps.gstatic.com/mapfiles/place_api/icons/shopping-71.png", "id": "787f55fc27e3f7a5ea5b77eebbf47725737a9c41", "name": "Academy Sports + Outdoors", "opening_hours": {"open_now": true}, "photos": [{"height": 4032, "html_attributions": ["<a href=\"https://maps.google.com/maps/contrib/114546610402918215295\">Armando Alvarez</a>"], "photo_reference": "CmRaAAAAD3fmV3fgg-ZmrzGcJ7vcY1ZJ5QU53L70E6q9muuEEFqB93cAExBrwHm-unXyrywRMNWuRdjn4OMfcltFXOrgr8IKUOsMJ-tEdtgSSCr27DlniuWirgo4yMqv4Nvv6iNKEhDAc7J-jjCucXE8VBB_hOlsGhSupg5cj3sBF79Z1XDXl7owtnboBg", "width": 3024}], "place_id": "ChIJk2nH1Aj43YYRrFsNyay8bm8", "plus_code": {"compound_code": "RF95+4W El Paso, Texas", "global_code": "853MRF95+4W"}, "rating": 4.4, "reference": "ChIJk2nH1Aj43YYRrFsNyay8bm8", "types": ["shoe_store", "point_of_interest", "clothing_store", "store", "establishment"], "user_ratings_total": 1720}, {"formatted_address": "1918 Texas Ave, El Paso, TX 79901, United States", "geometry": {"location": {"lat": 31.7704619, "lng": -106.4687935}, "viewport": {"northeast": {"lat": 31.77187547989272, "lng": -106.4674997701073}, "southwest": {"lat": 31.76917582010728, "lng": -106.4701994298927}}}, "icon": "https://maps.gstatic.com/mapfiles/place_api/icons/school-71.png", "id": "f92be6c1120b164d486afcb7d8595a9cd920c40a", "name": "El Paso Leadership Academy", "opening_hours": {"open_now": false}, "photos": [{"height": 1960, "html_attributions": ["<a href=\"https://maps.google.com/maps/contrib/106196208878687897513\">A Google User</a>"], "photo_reference": "CmRaAAAAyYLbxq7oD2_4Pi2HnMmCTb5KkMPybX7kodXeNpD8sr8NKjbf6gXQIEqall0zlZOaWSqShpwRze81M8q6djbhRGUpRF24F69c1hgbsYIW1p379YeiTk0iJKnW4iLYPyNVEhChcHN9Lp5pGwJz3m2ze1SOGhTD-AfHiZkagLNR-VwjQf_Aqe9YXA", "width": 4032}], "place_id": "ChIJSVQdvKBZ54YRj3_ruZdBqGg", "plus_code": {"compound_code": "QGCJ+5F El Paso, Texas", "global_code": "853MQGCJ+5F"}, "rating": 4, "reference": "ChIJSVQdvKBZ54YRj3_ruZdBqGg", "types": ["secondary_school", "school", "point_of_interest", "establishment"], "user_ratings_total": 24}], "status": "OK"}