{"html_attributions": [], "results": [{"formatted_address": "4106 SW 51st Ave, Amarillo, TX 79109, United States", "geometry": {"location": {"lat": 35.1550392, "lng": -101.882697}, "viewport": {"northeast": {"lat": 35.15629312989272, "lng": -101.8813528201073}, "southwest": {"lat": 35.15359347010728, "lng": -101.8840524798927}}}, "icon": "https://maps.gstatic.com/mapfiles/place_api/icons/school-71.png", "id": "e500420cee616829515610cb6f2e6e34a80e55e4", "name": "Richard Milburn Academy - RMA Amarillo", "opening_hours": {}, "photos": [{"height": 470, "html_attributions": ["<a href=\"https://maps.google.com/maps/contrib/101820645242709104560\">Richard Milburn Academy- RMA</a>"], "photo_reference": "CmRaAAAAy0t37rxd2Vq85m1KGhnlCWxCJyOi6sQIsQ46MRD2ouhTKgUjyn8p57MHHwJ46KyrF5kbfY2R9MNYT3sdjPWNaUPKOkEfVWouA0_nKPESvowW3Fai04iNSzkq65RGt97TEhC-ESATXLQHZnpW5ZM_a9bLGhTN1HCvAtLAkUhnWSFfVzCtD-PuYQ", "width": 620}], "place_id": "ChIJOW4ZpPhPAYcROsMek694iCY", "plus_code": {"compound_code": "5448+2W Amarillo, Texas", "global_code": "857W5448+2W"}, "rating": 3.3, "reference": "ChIJOW4ZpPhPAYcROsMek694iCY", "types": ["secondary_school", "school", "point_of_interest", "establishment"], "user_ratings_total": 6}, {"formatted_address": "503 E I-20 Frontage Suite #110, Midland, TX 79701, United States", "geometry": {"location": {"lat": 31.9757662, "lng": -102.0663221}, "viewport": {"northeast": {"lat": 31.97703607989272, "lng": -102.0653062201073}, "southwest": {"lat": 31.97433642010728, "lng": -102.0680058798927}}}, "icon": "https://maps.gstatic.com/mapfiles/place_api/icons/school-71.png", "id": "634c35deb2b752963cfbeeef86299563d77d0cd7", "name": "Richard Milburn Academy - RMA Midland", "opening_hours": {}, "photos": [{"height": 566, "html_attributions": ["<a href=\"https://maps.google.com/maps/contrib/109496157085784919841\">Richard Milburn Academy - RMA</a>"], "photo_reference": "CmRaAAAAUfXtD1dqbvDHQZG6JHYn_7-ZLsnVCGXlrqFH6BfN0Jjz1JBahoZG1xQIl_guUEcqAZ_7ER7uw5juEt7vS8GcHB4TFB1Z7Nc6ny5ASqKhHsY-Y4e6-iA6yzsPdfNQQczyEhAftSc6Q0eMdl2SuLi4sM0aGhTcUErKRXFV_tauspHPIDUdge_dIA", "width": 850}], "place_id": "ChIJUWh-QaRi-YYRbKQi70cvQcI", "plus_code": {"compound_code": "XWGM+8F Midland, Texas", "global_code": "853VXWGM+8F"}, "rating": 4.4, "reference": "ChIJUWh-QaRi-YYRbKQi70cvQcI", "types": ["secondary_school", "school", "point_of_interest", "establishment"], "user_ratings_total": 7}, {"formatted_address": "2419 N County Rd W #100, Odessa, TX 79763, United States", "geometry": {"location": {"lat": 31.8605555, "lng": -102.3967486}, "viewport": {"northeast": {"lat": 31.86192527989272, "lng": -102.3953261701073}, "southwest": {"lat": 31.85922562010727, "lng": -102.3980258298927}}}, "icon": "https://maps.gstatic.com/mapfiles/place_api/icons/school-71.png", "id": "3c34458d323f95a1082ae02e79c65b495f3b5552", "name": "Richard Milburn Academy - RMA Odessa", "opening_hours": {}, "photos": [{"height": 566, "html_attributions": ["<a href=\"https://maps.google.com/maps/contrib/102548369237240786335\">Richard Milburn Academy - RMA</a>"], "photo_reference": "CmRaAAAAKuGax-4HAWXMD2w6DFHAs_1ViS3rHJVAdUQMxQznPp6mDNdYqu-ilNc0O67Bp_3h2ZggVK1Fne2imRpFZURVT7jUKzEN9Yt_wSww5J7FFdrbG4YAX6XxoR5JmUeMV2bYEhDQX0kq21p_p0ohRux38-cFGhTPikIkuxTN6sJboepqDxpH7E3GzA", "width": 850}], "place_id": "ChIJy7tyhqMT-hQRlKqIvnjvgAI", "plus_code": {"compound_code": "VJ63+68 Odessa, Texas", "global_code": "853VVJ63+68"}, "rating": 3.6, "reference": "ChIJy7tyhqMT-hQRlKqIvnjvgAI", "types": ["secondary_school", "school", "point_of_interest", "establishment"], "user_ratings_total": 7}, {"formatted_address": "713 E Airtex Dr, Houston, TX 77073, United States", "geometry": {"location": {"lat": 29.984617, "lng": -95.4124353}, "viewport": {"northeast": {"lat": 29.98581062989272, "lng": -95.41108252010727}, "southwest": {"lat": 29.98311097010728, "lng": -95.41378217989272}}}, "icon": "https://maps.gstatic.com/mapfiles/place_api/icons/school-71.png", "id": "80c04e3a165b24bdf8d8b008569ffc132fb33768", "name": "Richard Milburn Academy - RMA Houston", "opening_hours": {}, "photos": [{"height": 3265, "html_attributions": ["<a href=\"https://maps.google.com/maps/contrib/106514308639012937049\">Richard Milburn Academy - RMA</a>"], "photo_reference": "CmRaAAAAbablvl75N8V7tQb-pEX2CNu1ze-M6y1zSrk08MfsuIXs3lTu7fTktJopxaRRvcHjlPWo9GO-LBKS0V4qTCbTZLYH1yWrgxb_-G9PQrq7tvJhPJvhxycHlCXcCqxwfrCoEhBZCv8nW_Sv9_atocI7lGCRGhT6AoLQEby5AOeyyzTUB3L4Q88D8g", "width": 4898}], "place_id": "ChIJ5Xmu22vKQIYRxz_aIzXx5ys", "plus_code": {"compound_code": "XHMQ+R2 Century Plaza, Houston, TX", "global_code": "76X6XHMQ+R2"}, "rating": 4.4, "reference": "ChIJ5Xmu22vKQIYRxz_aIzXx5ys", "types": ["secondary_school", "school", "point_of_interest", "establishment"], "user_ratings_total": 25}, {"formatted_address": "802 N 8th St, Killeen, TX 76541, United States", "geometry": {"location": {"lat": 31.12444069999999, "lng": -97.72497419999999}, "viewport": {"northeast": {"lat": 31.12581242989272, "lng": -97.72372102010728}, "southwest": {"lat": 31.12311277010728, "lng": -97.72642067989271}}}, "icon": "https://maps.gstatic.com/mapfiles/place_api/icons/school-71.png", "id": "c105a539ee46940e17935e8f03b1293877ca043b", "name": "Richard Milburn Academy - RMA Killeen", "opening_hours": {}, "photos": [{"height": 525, "html_attributions": ["<a href=\"https://maps.google.com/maps/contrib/113420408241648665258\">Richard Milburn Academy- RMA</a>"], "photo_reference": "CmRaAAAAbv2rfKEzmXvgJ4K_oAy14Q85YUj78SWvvB61rN2Ke_Cw1FeeUgkS2YQlaYEhre8MetYscXYevlll13kEx_H0pwcahOJ-xoF8g2h3AhVqTFmANO0a_Y0lj3iG6XxMZCbnEhDizVTP_xdzXCmwVL7RsRrpGhQ04fum322Jqb7aR8QkP3XQCImQwQ", "width": 772}], "place_id": "ChIJzeE_UYxLRYYRmCne_j9lrIQ", "plus_code": {"compound_code": "47FG+Q2 Killeen, Texas", "global_code": "863447FG+Q2"}, "rating": 3.5, "reference": "ChIJzeE_UYxLRYYRmCne_j9lrIQ", "types": ["secondary_school", "school", "point_of_interest", "establishment"], "user_ratings_total": 10}, {"formatted_address": "320 E Southmore Ave Suite #306, Pasadena, TX 77502, United States", "geometry": {"location": {"lat": 29.6896875, "lng": -95.20842739999999}, "viewport": {"northeast": {"lat": 29.69108527989273, "lng": -95.20713792010727}, "southwest": {"lat": 29.68838562010728, "lng": -95.20983757989272}}}, "icon": "https://maps.gstatic.com/mapfiles/place_api/icons/school-71.png", "id": "dfd8b91dbba2814195cb6346da10f8f958fc12f8", "name": "Richard Milburn Academy - RMA Pasadena", "opening_hours": {}, "photos": [{"height": 1536, "html_attributions": ["<a href=\"https://maps.google.com/maps/contrib/112401560371948447571\">Richard Milburn Academy - RMA</a>"], "photo_reference": "CmRaAAAA26iEfD-4sTs84sVhvmp2mwU60Fhha9oRi3nZUBj1EnU1Z0hIdQgspC4N82aXyKtV2gQuOolsTir0fiLgctSfU7JZyb0zIH9v-tiWHwDozPNIcMMJZXmQsDYzitFao2w3EhAHd_tQxiJ5V8zC3D0cx9xFGhSvzdcJ0nQTD0vmN4gEd2fm6ezoNQ", "width": 2048}], "place_id": "ChIJWX2H_-uiQIYRiWyHeQDQF10", "plus_code": {"compound_code": "MQQR+VJ Pasadena, Texas", "global_code": "76X6MQQR+VJ"}, "rating": 2.9, "reference": "ChIJWX2H_-uiQIYRiWyHeQDQF10", "types": ["secondary_school", "school", "point_of_interest", "establishment"], "user_ratings_total": 8}, {"formatted_address": "5333 Everhart Rd., Bldg. C, Corpus Christi, TX 78411, United States", "geometry": {"location": {"lat": 27.7104998, "lng": -97.3874969}, "viewport": {"northeast": {"lat": 27.71173247989272, "lng": -97.38622177010728}, "southwest": {"lat": 27.70903282010728, "lng": -97.38892142989273}}}, "icon": "https://maps.gstatic.com/mapfiles/place_api/icons/school-71.png", "id": "b6c3f164b1e34438a61bcc3335f369097690558f", "name": "Richard Milburn Academy- RMA Corpus Christi", "opening_hours": {}, "photos": [{"height": 3024, "html_attributions": ["<a href=\"https://maps.google.com/maps/contrib/115016935614710928278\">Richard Milburn Academy- RMA</a>"], "photo_reference": "CmRaAAAAPXXXGuk23UfyHhY-E4rJgMQqk5HKzpl6N1eGQEmTgb2p65mTdq963oAXZYbhUQiAsJqCHOteA6uFsd2K2XkPeGPkhxav242vpYTx7M-9uIv76zhfvaQbU2p9kIJf1QghEhAPHUlvdzzzs9OY6-e38DIYGhSj2csFTe8HNOTCy38XON7ldXik9Q", "width": 4032}], "place_id": "ChIJl1RnpXtfaIYROSlyLwkrauA", "plus_code": {"compound_code": "PJ67+52 South Side, Corpus Christi, TX", "global_code": "76V4PJ67+52"}, "rating": 4.2, "reference": "ChIJl1RnpXtfaIYROSlyLwkrauA", "types": ["secondary_school", "school", "point_of_interest", "establishment"], "user_ratings_total": 11}, {"formatted_address": "6785 Camp Bowie Blvd #200, Fort Worth, TX 76116, United States", "geometry": {"location": {"lat": 32.7201568, "lng": -97.43450179999999}, "viewport": {"northeast": {"lat": 32.72145997989272, "lng": -97.43326437010728}, "southwest": {"lat": 32.71876032010728, "lng": -97.43596402989273}}}, "icon": "https://maps.gstatic.com/mapfiles/place_api/icons/school-71.png", "id": "6903eed7f538ee4d61655eee931a5c5413dc859d", "name": "Richard Milburn Academy - RMA Fort Worth", "opening_hours": {}, "photos": [{"height": 3024, "html_attributions": ["<a href=\"https://maps.google.com/maps/contrib/101204201833007282454\">A Google User</a>"], "photo_reference": "CmRaAAAAx2q1DzgOfvOPt9V_mU23e0tj04Lp3iV9nVYGiWyAqgdgRdby8tNrDz4IixkLZHXok8R67ADd_fRZP82cUPv0hh33GiShendrJy1D5QWGzy_qyfDJPuCZ4HYwdIN3fqr8EhB9eN430JCDr-ai9swYv5KzGhQ8IlRMvzUV3r63PrXQm0QEXsWg2Q", "width": 4032}], "place_id": "ChIJTwzGTtRyToYRxpW3PWXsqUU", "plus_code": {"compound_code": "PHC8+35 Fort Worth, Texas", "global_code": "8644PHC8+35"}, "rating": 3.8, "reference": "ChIJTwzGTtRyToYRxpW3PWXsqUU", "types": ["secondary_school", "school", "point_of_interest", "establishment"], "user_ratings_total": 12}, {"formatted_address": "13003 Jones Maltsberger Rd, San Antonio, TX 78247, United States", "geometry": {"location": {"lat": 29.5598112, "lng": -98.4612915}, "viewport": {"northeast": {"lat": 29.56103882989272, "lng": -98.45978192010728}, "southwest": {"lat": 29.55833917010727, "lng": -98.46248157989272}}}, "icon": "https://maps.gstatic.com/mapfiles/place_api/icons/school-71.png", "id": "bc05dd145e4bf4beb8e434c766af0ad6287efe7a", "name": "Richard Milburn Academy - RMA Central Office", "opening_hours": {}, "photos": [{"height": 566, "html_attributions": ["<a href=\"https://maps.google.com/maps/contrib/110035569410125043169\">Richard Milburn Academy - RMA</a>"], "photo_reference": "CmRaAAAAfAKcwlfxRrk_ejTbgYll0UF778Prt25ZmQqeBI68Zf_1NKl475QSwhyBjYT7SDFTCjJuo00E8c9P2Qk_JVftOBTu9-QsY4dHt85Ks1XR02Grz4U1UL8TDQDRQf_whEAeEhBR8WeovsfdyY9zJE-UbyVrGhSbp72FrTig0zY-bfCC_O4kfRLfKQ", "width": 850}], "place_id": "ChIJGyyz1ja5XIYRtqtSUdR2aQ0", "plus_code": {"compound_code": "HG5Q+WF San Antonio, Texas", "global_code": "76X3HG5Q+WF"}, "rating": 0, "reference": "ChIJGyyz1ja5XIYRtqtSUdR2aQ0", "types": ["point_of_interest", "establishment"], "user_ratings_total": 0}, {"formatted_address": "2333 50th St, Lubbock, TX 79412, United States", "geometry": {"location": {"lat": 33.5482889, "lng": -101.8685842}, "viewport": {"northeast": {"lat": 33.54983892989272, "lng": -101.8672321701073}, "southwest": {"lat": 33.54713927010728, "lng": -101.8699318298927}}}, "icon": "https://maps.gstatic.com/mapfiles/place_api/icons/school-71.png", "id": "ac370bfbc2ee8004ee7710f503e7f656ac73d19c", "name": "Richard Milburn Academy - RMA Lubbock", "opening_hours": {}, "photos": [{"height": 1512, "html_attributions": ["<a href=\"https://maps.google.com/maps/contrib/100973605180490442825\">Richard Milburn Academy - RMA</a>"], "photo_reference": "CmRaAAAAQhu1rHkXXlt7JsdZGc1MQ-ugEM_FOrJtBpON_eH4f2aSR4EWYxLlSS4suwjyoPObgYPtY8zYpqiiVTV__SoYbpqwh2xgfYYuqLkk0ZpviwRNb8Or68J47AStP3craVr7EhDkQC2MXa8dk_YUqH2vbCg9GhSLnyfR09MR4fW6Je4eV6G_-R7HqQ", "width": 2016}], "place_id": "ChIJvxoEcm1t_oYRFUe5WFNwbRc", "plus_code": {"compound_code": "G4XJ+8H Lubbock, Texas", "global_code": "855WG4XJ+8H"}, "rating": 3.1, "reference": "ChIJvxoEcm1t_oYRFUe5WFNwbRc", "types": ["secondary_school", "school", "point_of_interest", "establishment"], "user_ratings_total": 7}], "status": "OK"}